City,Lat,Lon,Max Temp,Humidity,Cloudiness,Wind Speed,Country,Date
carnarvon,-24.87,113.63,19.0,82,90,8.7,AU,1594961110
cape town,-33.93,18.42,8.89,75,0,2.1,ZA,1594961158
zemio,5.03,25.14,20.29,96,74,0.13,CF,1594961159
hilo,19.73,-155.09,27.0,74,20,2.1,US,1594961159
nikolskoye,59.7,30.79,15.56,77,86,4.0,RU,1594961159
nanortalik,60.14,-45.24,8.77,60,2,2.53,GL,1594961159
hithadhoo,-0.6,73.08,29.05,72,95,4.34,MV,1594961160
ribeira grande,38.52,-28.7,20.51,80,36,4.78,PT,1594961160
mataura,-46.19,168.86,3.89,83,29,1.34,NZ,1594961160
tuktoyaktuk,69.45,-133.04,12.0,76,20,6.2,CA,1594961160
geraldton,-28.77,114.6,17.0,59,75,9.8,AU,1594961083
ocampo,21.65,-101.5,15.02,84,36,4.5,MX,1594961161
qaanaaq,77.48,-69.36,6.4,70,69,2.36,GL,1594961161
isangel,-19.55,169.27,26.0,78,75,3.1,VU,1594961161
hasaki,35.73,140.83,20.0,100,75,6.2,JP,1594961161
arlit,18.74,7.39,30.83,43,25,1.33,NE,1594961161
marystown,47.17,-55.15,9.18,73,19,5.2,CA,1594961161
matara,5.95,80.54,29.36,72,100,4.39,LK,1594961162
narsaq,60.92,-46.05,11.0,37,14,3.6,GL,1594961162
severo-kurilsk,50.68,156.12,12.52,86,92,0.49,RU,1594961162
torbay,47.67,-52.73,10.0,100,90,7.7,CA,1594961106
port alfred,-33.59,26.89,13.71,37,0,3.39,ZA,1594961163
galle,6.04,80.22,28.67,79,100,4.54,LK,1594961163
kodiak,57.79,-152.41,14.0,87,90,2.6,US,1594960937
omboue,-1.57,9.26,21.92,92,72,1.08,GA,1594961164
rikitea,-23.12,-134.97,23.1,81,100,2.11,PF,1594961164
paamiut,61.99,-49.67,7.57,71,8,4.71,GL,1594961164
atuona,-9.8,-139.03,26.6,74,4,7.31,PF,1594961165
bud,39.45,-86.18,21.67,95,13,1.93,US,1594961165
hermanus,-34.42,19.23,13.96,38,0,3.58,ZA,1594961165
barrow,71.29,-156.79,2.0,74,90,7.7,US,1594961103
broken hill,-31.95,141.43,17.0,33,0,0.7,AU,1594961165
luangwa,-15.62,30.42,12.23,65,22,1.1,ZM,1594961165
bluff,-46.6,168.33,3.89,83,42,1.34,NZ,1594961166
cairo,30.06,31.25,24.0,73,40,2.1,EG,1594961166
praia da vitoria,38.73,-27.07,20.0,82,75,4.31,PT,1594961166
chuy,-33.7,-53.46,7.75,93,0,1.65,UY,1594961166
zenzeli,45.92,47.05,30.72,31,59,6.02,RU,1594961167
sao joao da barra,-21.64,-41.05,20.09,71,91,2.75,BR,1594961167
klaksvik,62.23,-6.59,10.0,93,74,6.7,FO,1594961167
busselton,-33.65,115.33,14.44,60,38,7.92,AU,1594961167
souillac,-20.52,57.52,22.0,73,40,3.6,MU,1594961168
volksrust,-27.37,29.88,2.7,50,0,0.44,ZA,1594961168
ponta do sol,32.67,-17.1,19.0,82,20,2.1,PT,1594961168
new norfolk,-42.78,147.06,11.67,81,0,0.62,AU,1594961168
jamestown,42.1,-79.24,22.22,100,90,3.6,US,1594961169
hobart,-42.88,147.33,11.67,57,20,2.6,AU,1594961162
butaritari,3.07,172.79,28.46,72,75,4.4,KI,1594961169
freeport,40.66,-73.58,21.67,68,1,5.7,US,1594961065
punta arenas,-53.15,-70.92,-2.0,92,0,2.6,CL,1594961170
sao filipe,14.9,-24.5,23.46,82,48,1.66,CV,1594961170
male,4.17,73.51,28.43,74,97,1.5,MV,1594961148
andilamena,-17.02,48.58,13.28,84,43,5.91,MG,1594961170
dikson,73.51,80.55,5.32,93,45,3.56,RU,1594961171
albany,42.6,-73.97,17.78,84,100,4.88,US,1594961171
ust-nera,64.57,143.2,20.76,29,75,2.23,RU,1594961171
bengkulu,-3.8,102.27,28.77,74,62,4.27,ID,1594961171
tenenkou,14.46,-4.92,25.47,74,8,4.33,ML,1594961171
tucupita,9.06,-62.05,23.35,98,68,1.19,VE,1594961172
bolotnoye,55.67,84.4,23.31,60,0,3.08,RU,1594961172
eyl,7.98,49.82,28.51,45,100,14.06,SO,1594961172
bolshaya martynovka,47.27,41.67,24.95,42,91,5.62,RU,1594961172
ushuaia,-54.8,-68.3,-4.0,79,0,2.1,AR,1594961172
saskylakh,71.92,114.08,9.31,82,100,5.83,RU,1594961172
codrington,-38.27,141.97,13.52,67,0,2.97,AU,1594961173
rezina,47.75,28.96,18.51,77,22,1.1,MD,1594961173
puerto ayora,-0.74,-90.35,18.89,93,5,0.89,EC,1594961173
tezu,27.92,96.17,24.89,86,100,1.53,IN,1594961173
sokoni,-6.43,39.55,24.02,61,90,12.4,TZ,1594961173
bethel,41.37,-73.41,18.0,77,20,2.6,US,1594961174
puyang,29.46,119.89,33.03,64,52,2.56,CN,1594961174
fortuna,40.6,-124.16,14.44,93,90,2.6,US,1594961174
upernavik,72.79,-56.15,6.74,68,96,2.27,GL,1594961174
shiyan,32.65,110.78,21.52,88,100,0.39,CN,1594961175
mar del plata,-38.0,-57.56,7.22,93,0,4.1,AR,1594961175
bilma,18.69,12.92,29.32,39,5,2.55,NE,1594961175
porto walter,-8.27,-72.74,21.51,95,0,0.27,BR,1594961175
aksu,41.12,80.26,32.03,23,49,0.68,CN,1594960986
boyolangu,-8.12,111.89,28.63,63,67,2.78,ID,1594961176
mandiana,10.63,-8.68,21.35,95,100,2.81,GN,1594961176
constitucion,-35.33,-72.42,11.94,88,100,4.91,CL,1594961176
suntar,62.14,117.63,19.95,56,100,1.98,RU,1594961177
portland,45.52,-122.68,22.22,56,20,4.1,US,1594961060
felanitx,39.47,3.15,21.0,83,75,0.83,ES,1594961177
ningyang,35.76,116.79,30.0,15,100,4.93,CN,1594961177
maceio,-9.67,-35.74,19.0,93,34,1.5,BR,1594961165
mehamn,71.04,27.85,13.0,82,89,1.0,NO,1594961177
vaini,-21.2,-175.2,25.0,83,75,3.1,TO,1594961178
bredasdorp,-34.53,20.04,6.0,87,0,3.1,ZA,1594961178
goderich,43.75,-81.72,22.22,77,5,3.26,CA,1594961119
oussouye,12.48,-16.55,27.0,88,75,4.1,SN,1594961178
norman wells,65.28,-126.83,19.0,72,75,3.1,CA,1594960927
bathsheba,13.22,-59.52,28.0,74,75,6.7,BB,1594961178
georgetown,5.41,100.34,31.0,70,20,2.6,MY,1594961141
opuwo,-18.06,13.84,10.86,46,0,9.15,NA,1594961179
saint-philippe,-21.36,55.77,19.44,93,37,7.2,RE,1594961179
chokurdakh,70.63,147.92,11.21,57,84,2.35,RU,1594961179
bambous virieux,-20.34,57.76,22.78,73,40,3.6,MU,1594961179
concepcion,-36.83,-73.05,13.0,82,100,10.8,CL,1594961180
elizabeth city,36.29,-76.25,26.0,88,1,2.6,US,1594961180
boguchany,58.38,97.45,16.25,54,92,6.07,RU,1594961180
rockland,41.17,-74.05,20.0,81,72,3.14,US,1594961180
vostok,46.49,135.88,27.41,50,0,3.27,RU,1594961181
zhengjiatun,43.51,123.51,34.61,33,77,8.17,CN,1594961181
golub-dobrzyn,53.11,19.05,14.09,88,100,2.4,PL,1594960849
cabo san lucas,22.89,-109.91,28.33,51,5,4.1,MX,1594961182
imbituba,-28.24,-48.67,14.0,100,75,3.1,BR,1594961182
lianran,24.92,102.48,23.89,82,90,8.0,CN,1594961021
arrecife,28.96,-13.55,22.0,78,0,1.5,ES,1594961182
mitsamiouli,-11.38,43.28,24.47,71,0,8.87,KM,1594961183
obo,5.4,26.49,19.98,96,69,0.66,CF,1594961183
dharchula,29.85,80.53,25.32,68,80,1.07,IN,1594961183
porto novo,6.5,2.6,24.0,94,20,3.6,BJ,1594961183
chernyshevskiy,63.01,112.47,17.45,50,35,3.88,RU,1594961183
kahului,20.89,-156.47,31.0,58,20,5.7,US,1594961183
tiksi,71.69,128.87,4.99,78,94,10.73,RU,1594961184
tasiilaq,65.61,-37.64,6.0,75,14,4.1,GL,1594961184
leningradskiy,69.38,178.42,7.76,79,86,6.6,RU,1594961184
east london,-33.02,27.91,5.0,60,0,2.6,ZA,1594961184
ilebo,-4.32,20.58,22.13,77,49,0.69,CD,1594961184
wenzhou,28.0,120.67,30.56,49,52,2.59,CN,1594961184
kawalu,-7.38,108.21,31.46,49,1,2.31,ID,1594961185
mahebourg,-20.41,57.7,22.0,73,40,3.6,MU,1594961185
sergeyevka,53.88,67.42,25.14,60,49,3.67,KZ,1594961185
thompson,55.74,-97.86,15.0,87,40,2.1,CA,1594961185
savonlinna,61.87,28.88,16.0,63,0,1.5,FI,1594961185
guamuchil,25.47,-108.1,28.33,87,83,0.89,MX,1594961149
sukumo,32.93,132.73,26.41,68,83,0.96,JP,1594961186
iqaluit,63.75,-68.51,8.0,81,75,2.6,CA,1594961186
yellowknife,62.46,-114.35,17.0,55,40,1.0,CA,1594961186
kandrian,-6.22,149.55,28.14,79,84,6.28,PG,1594961187
itarema,-2.92,-39.92,24.75,82,0,5.47,BR,1594961187
kaitangata,-46.28,169.85,6.67,62,24,3.35,NZ,1594961188
kruisfontein,-34.0,24.73,8.83,44,0,3.14,ZA,1594961188
quesnel,53.0,-122.5,17.0,88,90,1.3,CA,1594961188
viedma,-40.81,-63.0,7.78,95,100,0.45,AR,1594960947
pevek,69.7,170.31,4.33,97,99,2.04,RU,1594961189
strelka,58.07,93.03,15.51,60,70,5.13,RU,1594961189
moranbah,-22.0,148.05,20.05,25,0,4.06,AU,1594961090
port elizabeth,-33.92,25.57,6.0,100,0,2.1,ZA,1594961025
nebbi,2.48,31.09,19.5,80,100,0.56,UG,1594961190
victoria,22.29,114.16,33.33,59,72,7.6,HK,1594960975
kieta,-6.22,155.63,29.32,70,96,3.2,PG,1594961190
cherskiy,68.75,161.3,14.59,46,19,8.13,RU,1594961190
sao joao do piaui,-8.36,-42.25,21.88,71,0,3.57,BR,1594961190
gayeri,12.65,0.49,24.01,83,98,4.84,BF,1594961190
comodoro rivadavia,-45.87,-67.5,5.0,93,90,5.1,AR,1594961191
karratha,-20.74,116.85,25.96,33,4,3.82,AU,1594961189
kaeo,-35.1,173.78,15.45,90,100,2.92,NZ,1594961191
longyearbyen,78.22,15.64,7.0,87,40,1.0,SJ,1594961191
cidreira,-30.18,-50.21,13.58,93,100,3.68,BR,1594961116
clyde river,70.47,-68.59,6.0,93,1,1.0,CA,1594961191
okhotsk,59.38,143.3,15.22,81,100,3.47,RU,1594961192
tobane,-21.95,27.9,1.0,86,0,1.64,BW,1594961192
doha,25.29,51.53,40.0,50,0,2.6,QA,1594961131
sumbe,-11.21,13.84,19.79,84,43,2.15,AO,1594961193
mayskiy,47.69,40.1,19.0,77,40,9.0,RU,1594961193
kapaa,22.08,-159.32,28.0,74,40,4.1,US,1594961193
katsuura,35.13,140.3,21.0,94,75,3.1,JP,1594961193
fairbanks,64.84,-147.72,20.0,52,1,0.86,US,1594961194
saldanha,-33.01,17.94,5.0,80,0,0.5,ZA,1594961194
nagato,34.38,131.2,27.0,69,20,3.6,JP,1594961195
nsanje,-16.92,35.26,15.03,88,85,2.85,MW,1594961195
yulara,-25.24,130.99,20.0,20,0,3.1,AU,1594961195
odienne,9.51,-7.57,20.91,97,100,2.03,CI,1594961195
rorvik,64.86,11.24,13.0,100,75,2.1,NO,1594961195
itamaraca,-7.75,-34.83,23.0,83,40,2.6,BR,1594961195
san javier,37.81,-0.84,21.67,100,20,2.1,ES,1594961196
smithers,54.78,-127.17,16.0,67,75,2.1,CA,1594961119
luanda,-8.84,13.23,21.0,88,75,1.0,AO,1594961196
sisimiut,66.94,-53.67,7.99,83,81,0.11,GL,1594961196
hyeres,43.12,6.12,21.11,60,4,3.1,FR,1594961196
snejbjerg,56.14,8.9,12.78,93,83,0.5,DK,1594961196
amahai,-3.33,128.92,26.75,82,73,3.27,ID,1594961196
leh,34.17,77.58,18.42,28,1,2.76,IN,1594961196
buncrana,55.13,-7.45,13.62,95,100,2.92,IE,1594961197
ola,59.58,151.28,13.01,84,83,5.31,RU,1594961197
kavieng,-2.57,150.8,29.25,68,12,2.13,PG,1594961197
san patricio,19.22,-104.7,26.87,86,100,1.01,MX,1594961197
port moresby,-9.44,147.18,28.0,78,40,7.7,PG,1594961197
lamu,-2.27,40.9,25.58,69,100,9.96,KE,1594961198
lavrentiya,65.58,-171.0,11.39,76,100,0.97,RU,1594961198
beeskow,52.17,14.25,12.78,32,0,2.39,DE,1594961199
coihaique,-45.58,-72.07,0.0,87,90,1.0,CL,1594961199
road town,18.42,-64.62,26.67,93,0,0.89,VG,1594961199
le port,-20.94,55.29,19.44,77,8,3.1,RE,1594961199
solnechnyy,50.72,136.63,24.21,82,97,1.68,RU,1594961200
quatre cocos,-20.21,57.76,22.78,73,40,3.6,MU,1594961201
yaan,7.38,8.57,20.9,98,100,3.9,NG,1594961201
te anau,-45.42,167.72,4.22,71,80,0.41,NZ,1594961201
formosa do rio preto,-11.05,-45.19,18.5,67,0,2.19,BR,1594961202
ekibastuz,51.67,75.37,28.09,46,100,7.42,KZ,1594961202
asau,46.43,26.4,20.56,100,46,1.5,RO,1594961202
lompoc,34.64,-120.46,16.0,82,3,3.1,US,1594961034
thinadhoo,0.53,72.93,29.13,69,98,3.41,MV,1594961202
japura,-0.32,102.35,31.91,58,37,1.5,ID,1594961202
nuevitas,21.55,-77.26,25.0,94,83,3.1,CU,1594961203
nilai,2.82,101.8,33.33,66,20,1.5,MY,1594961203
ahipara,-35.17,173.17,15.41,90,100,3.99,NZ,1594961203
ouadda,8.08,22.4,20.01,95,95,0.92,CF,1594961203
buala,-8.14,159.59,28.5,75,100,3.42,SB,1594961204
ikungi,-5.13,34.77,10.63,74,91,4.07,TZ,1594961204
nemuro,43.32,145.57,22.0,64,20,3.1,JP,1594961205
scottsbluff,41.87,-103.67,27.22,36,1,0.85,US,1594961205
gra liyia,35.02,25.68,23.33,83,20,3.6,GR,1594961205
fare,-16.7,-151.02,25.75,76,52,3.48,PF,1594961206
castro,-24.79,-50.01,13.89,86,44,2.53,BR,1594961206
vilyuysk,63.76,121.62,15.18,92,100,2.1,RU,1594961207
berlevag,70.86,29.09,13.0,82,93,1.0,NO,1594961207
louga,58.74,29.85,15.05,67,77,2.79,RU,1594961207
beloha,-25.17,45.05,16.53,72,43,3.38,MG,1594961207
djambala,-2.54,14.75,19.16,90,99,1.93,CG,1594961207
winneba,5.35,-0.62,24.0,83,20,4.1,GH,1594961207
lata,40.16,-8.33,22.78,75,71,1.76,PT,1594961208
san quintin,30.48,-115.95,19.28,85,0,4.83,MX,1594961208
hope,33.67,-93.59,28.33,68,60,1.55,US,1594961208
kaa-khem,51.68,94.73,20.38,37,96,1.67,RU,1594961208
balabac,7.99,117.06,29.9,71,100,4.78,PH,1594961209
trincomalee,8.57,81.23,30.07,69,86,5.4,LK,1594961209
grimshaw,56.18,-117.6,16.0,82,75,3.1,CA,1594961209
folldal,62.13,10.0,13.03,74,100,2.21,NO,1594961209
airai,-8.93,125.41,23.84,57,1,1.3,TL,1594961209
jijiga,9.35,42.8,16.86,73,94,10.37,ET,1594961209
grindavik,63.84,-22.43,7.0,81,75,15.4,IS,1594961210
san jeronimo,-11.95,-75.28,7.64,72,21,0.97,PE,1594961210
lasa,46.62,10.7,10.0,100,90,2.6,IT,1594961210
canalete,8.68,-76.2,25.0,100,20,1.27,CO,1594961211
uchiza,-8.46,-76.46,19.96,83,21,0.83,PE,1594961211
gorodovikovsk,46.09,41.93,26.59,36,99,6.9,RU,1594961211
nipawin,53.37,-104.0,15.0,87,1,2.6,CA,1594961211
hienghene,-20.68,164.93,21.81,52,0,0.76,NC,1594961212
arraial do cabo,-22.97,-42.03,20.08,75,2,7.5,BR,1594961212
flinders,-34.58,150.86,16.67,64,24,6.26,AU,1594961212
kubuta,-26.88,31.48,6.0,81,0,2.6,SZ,1594961213
khatanga,71.97,102.5,7.97,76,100,8.0,RU,1594961213
lewiston,44.1,-70.21,14.0,87,90,1.5,US,1594961187
balkhash,46.84,74.98,30.0,23,0,8.0,KZ,1594961213
talnakh,69.49,88.4,11.0,71,75,9.0,RU,1594961213
saint-georges,12.06,-61.75,28.0,78,20,5.1,GD,1594961214
kushiro,42.98,144.37,17.0,77,75,4.1,JP,1594961214
lensk,60.73,114.93,19.83,45,100,2.82,RU,1594961214
kenai,60.55,-151.26,19.0,67,1,6.2,US,1594961214
adrar,20.5,-10.07,29.53,28,35,4.95,MR,1594961214
cockburn town,21.46,-71.14,28.13,78,31,8.01,TC,1594961214
verkhniye tatyshly,56.29,55.86,24.16,76,100,3.16,RU,1594961215
la ronge,55.1,-105.28,15.0,82,90,3.15,CA,1594961095
beaverlodge,55.22,-119.44,17.0,59,40,6.7,CA,1594960986
pyaozerskiy,65.83,31.17,14.29,48,15,1.49,RU,1594961215
maniitsoq,65.42,-52.9,7.5,83,72,0.3,GL,1594961215
naranjal,-2.67,-79.62,23.0,83,75,5.1,EC,1594961216
lincoln,40.8,-96.67,26.0,78,1,4.1,US,1594960982
poum,-20.23,164.02,21.5,59,0,6.37,NC,1594961216
sooke,48.37,-123.73,17.78,88,73,10.73,CA,1594961216
ouesso,1.61,16.05,21.32,95,99,0.8,CG,1594961217
northam,51.03,-4.22,15.0,99,38,2.68,GB,1594961217
gamba,-2.65,10.0,20.79,95,63,0.85,GA,1594961217
hami,42.8,93.45,32.16,19,13,1.88,CN,1594961217
enshi,30.3,109.48,24.41,88,100,0.87,CN,1594961031
rocha,-34.48,-54.33,6.38,94,0,3.5,UY,1594961218
faanui,-16.48,-151.75,25.3,82,16,4.78,PF,1594961218
dasoguz,41.84,59.97,32.0,33,96,3.1,TM,1594961219
walvis bay,-22.96,14.51,17.0,23,0,5.1,NA,1594961219
leczna,51.3,22.88,15.0,100,90,2.1,PL,1594961078
sompeta,18.93,84.6,31.19,66,23,2.13,IN,1594961219
tigzirt,36.89,4.12,21.53,73,0,4.59,DZ,1594961219
am timan,11.03,20.28,21.47,93,100,2.18,TD,1594961219
san juan,-31.54,-68.54,8.14,58,0,0.13,AR,1594961219
acarau,-2.89,-40.12,24.88,82,0,6.13,BR,1594960971
sakaiminato,35.55,133.23,26.0,73,40,7.2,JP,1594961220
esperance,-33.87,121.9,10.0,100,75,10.3,AU,1594961220
sundsvall,62.39,17.31,16.11,93,8,1.0,SE,1594961220
totoral,-17.41,-70.36,10.94,43,0,0.48,PE,1594961220
tura,25.52,90.22,27.67,89,87,2.67,IN,1594961220
labuhan,-6.88,112.21,29.83,64,44,5.03,ID,1594961220
hofn,64.25,-15.21,11.0,88,98,3.11,IS,1594961221
ilulissat,69.22,-51.1,9.0,66,89,1.5,GL,1594961221
college,64.86,-147.8,20.0,52,75,1.5,US,1594961029
kasongo-lunda,-6.47,16.82,18.14,39,11,0.93,CD,1594961221
mecca,21.43,39.83,31.64,32,1,3.09,SA,1594961221
olinda,-8.01,-34.86,23.0,83,40,2.6,BR,1594961222
bandrele,-12.91,45.19,26.0,69,75,8.2,YT,1594961222
guerrero negro,27.98,-114.06,19.23,86,0,4.85,MX,1594961166
nantucket,41.28,-70.1,15.0,87,1,3.1,US,1594961222
oriximina,-1.77,-55.87,23.79,89,86,0.82,BR,1594961223
broome,42.25,-75.83,21.11,77,90,6.2,US,1594961223
balikpapan,-1.27,116.83,29.0,83,20,1.5,ID,1594961223
tursunzoda,38.51,68.23,31.0,31,20,1.0,TJ,1594961223
nizhneangarsk,55.78,109.55,10.59,65,4,3.75,RU,1594961224
ixtapa,20.7,-105.2,26.67,94,90,2.6,MX,1594961224
bengbu,32.94,117.36,24.34,92,100,2.83,CN,1594961107
morondava,-20.28,44.28,20.84,50,47,8.55,MG,1594961225
vila velha,-20.33,-40.29,18.89,93,40,0.25,BR,1594961134
ancud,-41.87,-73.82,10.56,100,90,5.1,CL,1594961225
lannion,48.75,-3.42,15.0,93,90,2.1,FR,1594961225
kuryk,43.2,51.65,33.38,21,0,4.59,KZ,1594961225
calabozo,8.92,-67.43,23.05,94,98,0.9,VE,1594961225
saint george,37.1,-113.58,36.0,12,1,3.1,US,1594960999
lorengau,-2.02,147.27,30.05,63,49,1.48,PG,1594961226
san luis,-33.3,-66.34,8.19,55,92,2.21,AR,1594960993
pauini,-7.71,-66.98,22.61,81,11,0.33,BR,1594961226
sao jose da coroa grande,-8.9,-35.15,22.79,80,39,4.3,BR,1594961226
komsomolskiy,40.43,71.72,30.0,27,99,3.1,UZ,1594961226
mata de sao joao,-12.53,-38.3,22.0,94,75,3.1,BR,1594961226
ilhabela,-23.78,-45.36,19.45,84,67,3.92,BR,1594961227
soyo,-6.13,12.37,22.69,86,97,1.86,AO,1594961227
brighton,50.83,-0.14,16.11,83,100,0.45,GB,1594961227
elk plain,47.05,-122.4,21.0,68,40,2.46,US,1594961227
katima mulilo,-17.5,24.27,3.0,74,0,2.74,NA,1594961227
gold coast,-28.0,153.43,22.22,49,40,6.7,AU,1594961178
tessalit,20.2,1.01,29.2,33,0,2.27,ML,1594961227
qianan,44.99,124.06,35.22,35,97,7.09,CN,1594961227
alice springs,-23.7,133.88,19.0,20,0,2.6,AU,1594961188
dawson creek,55.77,-120.24,18.0,59,40,4.6,CA,1594961228
haradok,55.46,29.98,14.68,79,72,1.81,BY,1594961228
gobabis,-22.45,18.97,0.0,76,0,6.12,NA,1594961228
argayash,55.49,60.88,30.0,42,0,2.0,RU,1594961228
zhezkazgan,47.8,67.71,29.0,21,3,6.0,KZ,1594961228
rusne,55.3,21.38,18.0,93,40,3.0,LT,1594961228
general pico,-35.66,-63.76,9.07,67,100,3.82,AR,1594961229
coquimbo,-29.95,-71.34,9.0,100,61,1.5,CL,1594961229
hovd,48.01,91.64,21.41,33,0,3.15,MN,1594961229
abu dhabi,24.47,54.37,37.0,37,1,4.6,AE,1594961229
hamilton,39.18,-84.53,23.33,88,1,2.1,US,1594961131
mao,39.89,4.27,20.0,82,40,1.5,ES,1594961229
avarua,-21.21,-159.78,21.0,73,60,3.1,CK,1594961230
santa maria del oro,25.93,-105.37,20.93,63,100,1.98,MX,1594961106
makhinjauri,41.67,41.69,25.0,78,75,2.1,GE,1594961230
kanashevo,55.22,62.06,30.0,42,0,2.0,RU,1594961230
mezen,65.85,44.24,11.66,88,73,3.12,RU,1594961230
rincon,32.3,-81.24,28.0,78,20,1.5,US,1594961231
manokwari,-0.87,134.08,29.54,62,1,2.18,ID,1594961175
los llanos de aridane,28.66,-17.92,21.0,77,75,3.1,ES,1594961231
port macquarie,-31.43,152.92,16.11,77,17,1.79,AU,1594961231
jalu,29.03,21.55,25.45,45,0,3.35,LY,1594961232
burnie,-41.07,145.92,12.22,56,0,2.68,AU,1594961232
cayenne,4.93,-52.33,23.0,100,93,3.38,GF,1594961232
umm lajj,25.02,37.27,30.72,49,0,1.7,SA,1594961232
kuching,1.55,110.33,32.0,66,40,1.0,MY,1594961232
san ramon,37.78,-121.98,18.0,68,1,4.6,US,1594961191
marawi,8.0,124.29,29.44,76,53,3.58,PH,1594961233
haines junction,60.75,-137.51,14.22,59,62,2.42,CA,1594961233
shitanjing,39.23,106.34,26.51,34,49,6.75,CN,1594961233
alta floresta,-9.88,-56.09,21.36,58,17,0.53,BR,1594961234
lebu,-37.62,-73.65,11.92,91,100,10.31,CL,1594961234
vila franca do campo,37.72,-25.43,19.0,82,75,3.1,PT,1594961234
san cristobal,7.77,-72.22,17.86,90,39,1.6,VE,1594961234
bubaque,11.28,-15.83,25.56,88,100,7.47,GW,1594961234
guna,24.65,77.32,32.95,50,0,4.07,IN,1594961234
beringovskiy,63.05,179.32,11.1,84,92,2.38,RU,1594961234
qasigiannguit,68.82,-51.19,9.0,66,73,1.5,GL,1594961235
saint-augustin,51.23,-58.65,14.56,65,38,1.59,CA,1594961235
vadinsk,53.69,43.06,16.02,80,51,3.32,RU,1594961235
nakhon ratchasima,14.97,102.1,31.11,70,40,2.6,TH,1594961235
kodlipet,12.8,75.88,20.65,94,100,4.77,IN,1594961235
ndende,-2.4,11.36,21.4,86,99,0.7,GA,1594961235
lerwick,60.15,-1.15,11.0,93,100,6.7,GB,1594961236
coari,-4.08,-63.14,23.45,79,91,0.9,BR,1594961236
saint-maximin-la-sainte-baume,43.45,5.86,20.56,61,3,2.24,FR,1594961236
veinticinco de mayo,-35.43,-60.17,3.89,86,2,1.34,AR,1594961236
sucua,-2.47,-78.17,17.33,78,35,1.88,EC,1594961236
evanston,42.04,-87.69,23.0,69,40,2.1,US,1594961186
plesetsk,62.71,40.29,12.7,95,100,1.54,RU,1594961237
luderitz,-26.65,15.16,24.0,14,0,9.3,NA,1594961237
newport,51.59,-3.0,16.11,92,0,3.23,GB,1594961238
cabra,37.47,-4.44,23.33,49,0,1.97,ES,1594961238
raudeberg,61.99,5.14,16.0,93,75,6.2,NO,1594961238
sur,22.57,59.53,33.32,49,100,4.77,OM,1594961238
kabanjahe,3.1,98.49,30.0,74,40,3.6,ID,1594961239
littleton,39.61,-105.02,22.78,40,20,4.6,US,1594960962
manavalakurichi,8.13,77.3,26.0,88,75,5.1,IN,1594961239
tula,54.2,37.61,13.2,91,94,3.19,RU,1594961228
santa rosa,14.31,121.11,35.0,50,36,4.1,PH,1594961212
tambacounda,13.75,-13.76,24.39,86,99,3.22,SN,1594961239
saint anthony,45.02,-93.22,25.0,65,1,3.6,US,1594961240
mackenzie,55.3,-123.17,18.0,55,90,3.1,CA,1594961240
khandyga,62.67,135.6,30.53,27,14,1.12,RU,1594961240
grand gaube,-20.01,57.66,22.78,73,0,2.24,MU,1594961240
zhigansk,66.77,123.37,18.77,49,42,4.49,RU,1594961240
neiafu,-18.65,-173.98,27.0,78,40,3.6,TO,1594961241
polyarnyy,69.2,33.45,17.0,67,56,2.0,RU,1594961241
half moon bay,37.46,-122.43,17.78,87,90,2.6,US,1594961241
san pedro,14.35,121.02,35.0,50,37,4.1,PH,1594961241
jizan,17.33,42.67,33.0,66,75,2.1,SA,1594961241
sorong,-0.88,131.25,28.1,73,0,1.95,ID,1594961241
kingisepp,59.37,28.61,17.0,58,8,1.62,RU,1594961242
necochea,-38.55,-58.74,7.26,78,46,3.55,AR,1594961242
manta,-0.95,-80.73,22.69,88,79,3.92,EC,1594961242
prokopyevsk,53.91,86.72,22.95,79,93,2.97,RU,1594961242
rongcheng,30.63,117.85,30.56,99,89,1.63,CN,1594961243
port lincoln,-34.73,135.87,17.96,47,39,6.02,AU,1594961081
kazerun,29.62,51.65,34.8,17,0,3.1,IR,1594961243
salalah,17.02,54.09,28.0,88,90,2.6,OM,1594961243
healdsburg,38.61,-122.87,15.0,87,1,4.1,US,1594961243
winnemucca,40.97,-117.74,26.0,15,1,0.48,US,1594961244
sitka,57.05,-135.33,13.0,87,90,4.6,US,1594961244
pochutla,15.74,-96.47,24.59,75,66,1.84,MX,1594961244
tema,5.67,-0.02,24.0,83,20,4.1,GH,1594961244
sarankhola,22.31,89.79,32.0,68,89,3.29,BD,1594961245
chardara,41.25,67.97,31.83,24,0,3.4,KZ,1594961245
fergus falls,46.28,-96.08,20.0,77,1,2.1,US,1594961129
canton,23.12,113.25,39.44,28,68,5.59,CN,1594961035
richards bay,-28.78,32.04,10.86,56,0,1.82,ZA,1594961245
severnyy,50.68,36.55,16.0,72,95,1.0,RU,1594961246
peniche,39.36,-9.38,18.89,87,2,3.17,PT,1594961246
clinton,42.59,-82.92,21.67,100,1,2.67,US,1594961246
erenhot,43.65,111.98,27.64,29,92,8.1,CN,1594961246
baguanos,20.75,-76.03,26.0,88,68,3.6,CU,1594961246
petropavlovsk-kamchatskiy,53.05,158.65,18.0,77,20,7.0,RU,1594961247
biskamzha,53.45,89.53,24.76,44,25,2.37,RU,1594961247
salinopolis,-0.61,-47.36,25.3,86,27,3.59,BR,1594961247
mogadishu,2.04,45.34,25.67,74,100,9.99,SO,1594961247
luena,-11.78,19.92,8.9,76,0,3.78,AO,1594961247
port hardy,50.7,-127.42,13.0,87,90,2.1,CA,1594961119
grajewo,53.65,22.46,15.59,89,43,1.7,PL,1594961247
sola,-13.88,167.55,27.21,78,70,3.16,VU,1594961248
takoradi,4.88,-1.76,22.82,92,46,2.67,GH,1594961248
hambantota,6.12,81.12,31.0,70,75,6.2,LK,1594961248
guangyuan,32.44,105.82,32.78,55,28,0.45,CN,1594961248
lumatil,5.87,124.89,29.87,64,5,2.28,PH,1594961249
dakoro,14.51,6.76,27.33,67,2,5.75,NE,1594961249
bonavista,48.65,-53.11,8.89,77,100,2.68,CA,1594961249
abeche,13.83,20.83,25.59,68,97,3.01,TD,1594961250
lanzhou,36.06,103.79,25.0,41,40,2.0,CN,1594961250
harper,4.38,-7.72,22.93,82,76,3.05,LR,1594961250
borkenes,68.77,16.17,15.0,82,100,3.6,NO,1594961250
halifax,44.65,-63.57,13.33,91,92,1.43,CA,1594960998
flin flon,54.77,-101.86,15.02,72,93,1.18,CA,1594961251
batagay-alyta,67.8,130.41,8.77,85,100,1.55,RU,1594961251
monteria,8.75,-75.88,25.0,100,20,1.53,CO,1594961098
lydenburg,-25.1,30.46,1.11,12,0,0.45,ZA,1594961251
frolovo,49.77,43.66,21.11,53,81,0.45,RU,1594961252
port-gentil,-0.72,8.78,23.95,84,93,3.66,GA,1594961252
barranca,-10.75,-77.77,14.25,90,33,1.98,PE,1594961252
riyadh,24.69,46.72,33.0,17,42,2.1,SA,1594961154
port blair,11.67,92.75,27.53,81,98,5.0,IN,1594961252
esna,25.29,32.55,28.44,31,0,5.53,EG,1594961252
sosnogorsk,63.6,53.88,18.8,81,100,1.6,RU,1594961253
kirkenes,69.73,30.05,16.0,72,82,1.5,NO,1594961253
eenhana,-17.47,16.33,9.0,56,0,2.1,NA,1594961253
ulaangom,49.98,92.07,23.71,37,0,2.42,MN,1594961253
ossora,59.24,163.07,15.02,86,95,1.95,RU,1594961253
khor,47.89,134.95,28.62,77,51,4.45,RU,1594961253
namibe,-15.2,12.15,21.85,29,0,5.43,AO,1594961253
moree,-29.47,149.85,18.0,45,0,5.1,AU,1594961254
laguna,38.42,-121.42,22.22,52,1,3.6,US,1594961072
padang,-0.95,100.35,27.54,78,33,4.66,ID,1594961058
bukachacha,52.98,116.92,20.19,80,100,1.49,RU,1594961254
kota kinabalu,5.97,116.07,31.0,79,20,1.5,MY,1594961255
umm kaddadah,13.6,26.69,27.41,59,38,5.96,SD,1594961255
aklavik,68.22,-135.01,16.0,55,20,4.1,CA,1594961255
quzhou,28.96,118.87,32.72,66,90,1.97,CN,1594961171
shatrovo,56.52,64.63,26.5,63,0,3.09,RU,1594961256
mmathubudukwane,-24.6,26.43,-1.0,58,0,2.1,BW,1594961256
jacarau,-6.61,-35.29,19.34,95,0,4.75,BR,1594961256
singaraja,-8.11,115.09,29.18,61,2,3.3,ID,1594961256
chingirlau,51.09,54.08,26.61,62,100,5.29,KZ,1594961257
roma,43.21,-75.46,20.0,88,90,2.6,US,1594961214
aykhal,66.0,111.5,20.0,45,75,3.0,RU,1594961257
fenoarivo,-18.93,47.44,11.0,76,75,5.7,MG,1594961257
podor,16.65,-14.96,26.0,74,20,3.85,MR,1594961257
quelimane,-17.88,36.89,18.0,88,40,2.6,MZ,1594961258
shakawe,-18.37,21.85,5.27,67,0,3.24,BW,1594961258
olafsvik,64.89,-23.71,8.57,76,86,13.43,IS,1594961258
athabasca,54.72,-113.29,14.56,91,100,2.14,CA,1594961258
kichera,55.94,110.1,17.15,46,39,4.26,RU,1594961258
semporna,4.48,118.61,30.0,70,20,1.5,MY,1594961258
krasnaya poyma,55.0,39.08,16.67,83,95,1.34,RU,1594961259
palakkad,10.78,76.65,24.0,88,75,4.6,IN,1594961259
skowhegan,44.77,-69.72,13.33,87,40,1.47,US,1594961259
rio gallegos,-51.62,-69.22,-11.0,100,75,0.5,AR,1594961259
conceicao do araguaia,-8.26,-49.26,24.0,69,50,1.0,BR,1594961259
kashary,49.04,41.01,21.27,53,79,1.74,RU,1594961260
ambilobe,-13.2,49.05,23.22,63,52,1.19,MG,1594961260
fort abbas,29.19,72.85,40.07,30,0,3.72,PK,1594961260
dingle,11.0,122.67,32.12,60,29,2.68,PH,1594961261
inirida,3.87,-67.92,22.05,97,43,0.62,CO,1594961261
kavaratti,10.57,72.64,28.46,81,100,8.79,IN,1594961261
jishou,28.32,109.72,31.23,64,99,4.72,CN,1594961262
benguela,-12.58,13.41,19.56,56,0,2.85,AO,1594961262
inuvik,68.35,-133.72,16.0,55,20,4.1,CA,1594961262
malakal,9.53,31.66,22.63,93,100,2.15,SS,1594961262
waycross,31.21,-82.35,25.0,83,1,2.1,US,1594961247
atasu,48.68,71.64,27.55,34,30,7.05,KZ,1594961263
huilong,31.81,121.66,26.67,99,84,1.34,CN,1594961263
saint-pierre,-21.34,55.48,19.44,93,71,7.2,RE,1594961263
mindyak,54.02,58.79,28.0,34,0,1.0,RU,1594961263
cururupu,-1.83,-44.87,23.09,96,0,1.04,BR,1594961263
hualmay,-11.1,-77.61,14.96,83,19,2.45,PE,1594961264
nampula,-15.12,39.27,16.17,88,21,5.25,MZ,1594961264
pafos,34.77,32.42,22.0,64,20,4.1,CY,1594961031
palmer,42.16,-72.33,18.0,77,90,4.1,US,1594961159
havre-saint-pierre,50.23,-63.6,14.0,71,90,1.0,CA,1594961264
volcan,8.77,-82.63,21.11,41,100,3.58,PA,1594961101
independencia,-5.4,-40.31,22.31,70,21,2.59,BR,1594961265
ust-maya,60.42,134.53,29.72,32,57,2.12,RU,1594961265
kyra,49.58,111.98,16.23,57,100,1.7,RU,1594961265
wilmington,34.23,-77.94,25.0,88,1,2.1,US,1594961093
talcahuano,-36.72,-73.12,13.0,82,100,10.8,CL,1594961265
bandarbeyla,9.49,50.81,28.57,52,95,15.54,SO,1594961265
hengyang,26.89,112.61,35.39,49,100,5.26,CN,1594961225
sahuaripa,29.05,-109.23,22.45,82,100,3.69,MX,1594961266
yashan,22.2,109.94,34.18,54,87,4.52,CN,1594960977
cotui,19.05,-70.15,22.99,93,10,0.58,DO,1594961266
pitimbu,-7.47,-34.81,23.09,85,10,5.74,BR,1594961266
tenkodogo,11.78,-0.37,23.22,86,100,3.37,BF,1594961266
gladstone,-23.85,151.25,21.0,28,0,2.6,AU,1594961267
muros,42.78,-9.06,18.33,66,84,4.47,ES,1594961267
ipatinga,-19.47,-42.54,16.75,91,25,1.41,BR,1594961267
voyvozh,62.89,54.96,21.14,78,86,1.84,RU,1594961267
chumikan,54.72,135.31,13.4,89,100,3.42,RU,1594961267
coos bay,43.37,-124.22,14.0,100,90,3.1,US,1594961268
tchollire,8.4,14.17,21.55,96,100,1.15,CM,1594961268
bonthe,7.53,-12.51,24.31,81,100,2.82,SL,1594961268
storsteinnes,69.24,19.23,13.0,93,75,5.7,NO,1594961269
tiznit,29.58,-9.5,26.84,35,88,0.46,MA,1594961269
krasnoselkup,65.7,82.47,15.7,55,6,7.22,RU,1594961269
gorontalo,0.54,123.06,30.0,64,39,1.84,ID,1594960999
camacha,33.08,-16.33,20.0,88,40,4.1,PT,1594961270
ronne,55.1,14.71,16.0,100,0,2.1,DK,1594961270
carutapera,-1.2,-46.02,23.02,94,15,1.17,BR,1594961270
leshukonskoye,64.9,45.76,14.09,69,97,2.4,RU,1594961270
avera,33.19,-82.53,27.0,94,1,1.5,US,1594961270
cataguases,-21.39,-42.7,16.11,99,42,0.34,BR,1594961270
eureka,40.8,-124.16,14.44,87,90,1.5,US,1594961271
sandwick,60.0,-1.25,11.0,93,100,6.7,GB,1594961271
yabelo,4.88,38.08,14.3,87,95,4.8,ET,1594961271
belaya gora,68.53,146.42,11.32,51,92,1.81,RU,1594961271
kamen-rybolov,44.75,132.04,26.28,69,6,4.91,RU,1594961271
vallenar,-28.57,-70.76,14.84,35,0,0.21,CL,1594961271
ballarat,-37.57,143.85,12.22,71,1,0.45,AU,1594961272
charters towers,-20.1,146.27,22.36,23,0,3.3,AU,1594961272
yerbogachen,61.28,108.01,11.32,89,99,4.39,RU,1594961272
buseresere,-3.02,31.87,16.35,46,100,4.97,TZ,1594961273
la cruz,23.92,-106.9,28.33,83,85,0.45,MX,1594961273
warwick,41.7,-71.42,17.22,82,75,2.1,US,1594961119
provideniya,64.38,-173.3,13.0,76,90,2.0,RU,1594961273
touros,-5.2,-35.46,22.0,94,75,2.1,BR,1594961274
ohafia,5.62,7.83,20.73,100,100,0.42,NG,1594961274
arica,-18.48,-70.3,15.84,79,100,0.53,CL,1594961274
buenos aires,-34.61,-58.38,11.0,71,0,3.1,AR,1594961016
troitsko-pechorsk,62.71,56.2,22.11,79,100,1.59,RU,1594961275
arvin,35.21,-118.83,32.0,27,1,3.1,US,1594961275
kaoma,-14.78,24.8,5.95,90,0,3.59,ZM,1594961275
